,City,Country,Lat,Lng,Max Temp,Humidity,Cloudiness,Wind Speed,Current Description
0,Rikitea,PF,-23.1203,-134.9692,78.71,72,38,16.31,scattered clouds
1,Tvoroyri,FO,61.5556,-6.8111,40.39,88,100,17.52,overcast clouds
2,East London,ZA,-33.0153,27.9116,78.73,84,0,16.06,clear sky
3,Geraldton,AU,-28.7667,114.6,70.21,78,5,10.36,clear sky
4,Albany,US,42.6001,-73.9662,52.09,44,99,1.99,overcast clouds
5,Talnakh,RU,69.4865,88.3972,-9.33,79,37,9.84,scattered clouds
6,Hilo,US,19.7297,-155.09,68.11,82,20,5.99,few clouds
7,Saint-Philippe,RE,-21.3585,55.7679,78.39,79,16,6.82,few clouds
8,Roma,US,43.2128,-75.4557,41.38,64,100,17.0,overcast clouds
9,Zhanaozen,KZ,43.3,52.8,39.61,82,86,7.99,overcast clouds
10,Yellowknife,CA,62.456,-114.3525,-23.58,87,0,3.44,clear sky
11,Hamilton,US,39.1834,-84.5333,32.4,80,100,11.5,overcast clouds
12,Vilhena,BR,-12.7406,-60.1458,82.62,74,75,12.66,broken clouds
13,Jishou,CN,28.3167,109.7167,37.31,99,100,1.36,light rain
14,Ginda,IN,30.6945,78.4932,41.29,38,0,7.65,clear sky
15,Trincomalee,LK,8.5711,81.2335,79.25,85,100,16.55,overcast clouds
16,Hithadhoo,MV,-0.6,73.0833,81.81,68,85,10.51,overcast clouds
17,Jamestown,US,42.097,-79.2353,32.09,63,100,17.27,overcast clouds
18,Kouqian,CN,43.6391,126.4578,1.69,98,56,2.08,broken clouds
19,Alekseyevsk,RU,57.8406,108.3492,-24.7,100,83,0.72,broken clouds
20,Kaitangata,NZ,-46.2817,169.8464,50.94,75,100,10.4,overcast clouds
21,Punta Arenas,CL,-53.15,-70.9167,57.31,44,20,41.43,few clouds
22,Superior,US,46.7208,-92.1041,0.48,56,0,6.91,clear sky
23,Yeppoon,AU,-23.1333,150.7333,71.38,77,39,17.83,scattered clouds
24,Ushuaia,AR,-54.8,-68.3,47.86,61,75,43.73,broken clouds
25,Thompson,CA,55.7435,-97.8558,-14.64,70,0,5.75,clear sky
26,Alugan,PH,12.2188,125.4808,77.74,87,100,12.88,overcast clouds
27,Acajutla,SV,13.5928,-89.8275,89.8,52,2,8.84,clear sky
28,Khatanga,RU,71.9667,102.5,-13.58,86,95,7.29,overcast clouds
29,Dzhuryn,UA,49.0329,25.5839,30.24,72,98,5.97,overcast clouds
30,Clyde River,CA,70.4692,-68.5914,-18.17,76,100,28.77,snow
31,Arraial Do Cabo,BR,-22.9661,-42.0278,82.36,69,40,9.22,scattered clouds
32,Busselton,AU,-33.65,115.3333,57.09,69,0,14.09,clear sky
33,Lebu,CL,-37.6167,-73.65,68.86,55,6,13.18,clear sky
34,Leningradskiy,RU,69.3833,178.4167,-22.13,98,98,4.43,overcast clouds
35,Zabaykalsk,RU,49.6333,117.3167,-20.06,100,41,3.53,scattered clouds
36,Ilulissat,GL,69.2167,-51.1,33.82,55,75,16.11,broken clouds
37,Mataura,NZ,-46.1927,168.8643,51.48,94,100,2.98,overcast clouds
38,Avarua,CK,-21.2078,-159.775,71.65,100,94,2.3,overcast clouds
39,Cape Town,ZA,-33.9258,18.4232,72.27,75,0,13.8,clear sky
40,Te Anau,NZ,-45.4167,167.7167,46.04,84,85,4.03,overcast clouds
41,Sitka,US,57.0531,-135.33,39.09,87,100,5.75,light rain
42,Hasaki,JP,35.7333,140.8333,30.6,59,47,6.06,scattered clouds
43,Mangai,CD,-4.05,19.5333,77.04,73,88,2.3,light rain
44,Westport,US,41.1415,-73.3579,60.78,41,0,12.66,clear sky
45,Margate,GB,51.3813,1.3862,42.96,68,99,5.01,overcast clouds
46,Hofn,IS,64.2539,-15.2082,26.44,69,94,20.67,overcast clouds
47,Alofi,NU,-19.0595,-169.9187,81.82,73,18,16.84,light rain
48,Bluff,NZ,-46.6,168.3333,51.8,64,80,14.92,broken clouds
49,Port Alfred,ZA,-33.5906,26.891,77.31,89,7,15.23,clear sky
50,Nicoya,CR,10.1483,-85.452,87.35,35,9,10.38,clear sky
51,Igboho,NG,8.8333,3.75,94.21,9,38,1.39,scattered clouds
52,Tuktoyaktuk,CA,69.4541,-133.0374,-27.4,68,20,6.91,few clouds
53,Qaanaaq,GL,77.484,-69.3632,-20.61,48,0,9.15,clear sky
54,Kyabe,TD,9.4515,18.9449,89.02,11,80,5.01,broken clouds
55,Svetlyy,RU,54.675,20.1347,33.85,65,84,15.82,broken clouds
56,Zhigansk,RU,66.7697,123.3711,-33.45,100,69,4.54,broken clouds
57,Kapaa,US,22.0752,-159.319,66.18,100,40,5.75,scattered clouds
58,Coihaique,CL,-45.5752,-72.0662,77.61,38,0,3.44,clear sky
59,Carnarvon,AU,-24.8667,113.6333,82.47,69,100,10.36,overcast clouds
60,Demidov,RU,55.2706,31.515,25.34,86,19,11.86,few clouds
61,Insar,RU,53.8653,44.3738,26.82,96,100,9.78,light snow
62,Nishihara,JP,26.1842,127.7558,69.08,94,100,18.41,mist
63,New Norfolk,AU,-42.7826,147.0587,54.75,67,77,2.66,broken clouds
64,Preston,GB,53.7667,-2.7167,47.32,91,100,1.99,overcast clouds
65,Hermanus,ZA,-34.4187,19.2345,70.9,84,96,6.53,overcast clouds
66,Narsaq,GL,60.9167,-46.05,32.22,97,100,3.06,snow
67,Waingapu,ID,-9.6567,120.2641,77.02,86,99,4.05,overcast clouds
68,Tonj,SS,7.2737,28.6822,87.17,18,5,5.03,clear sky
69,Vaini,TO,-21.2,-175.2,80.83,74,65,12.17,broken clouds
70,Bethel,US,41.3712,-73.414,57.92,50,75,19.57,broken clouds
71,Okahandja,NA,-21.9833,16.9167,73.83,47,76,3.83,broken clouds
72,Hobart,AU,-42.8794,147.3294,55.11,77,77,8.05,broken clouds
73,Wajima,JP,37.4,136.9,40.44,66,100,12.19,overcast clouds
74,Atuona,PF,-9.8,-139.0333,77.31,78,10,14.56,light rain
75,Bandarbeyla,SO,9.4942,50.8122,76.86,61,41,13.13,scattered clouds
76,San Patricio,US,28.017,-97.5169,66.29,61,13,20.15,few clouds
77,Moissala,TD,8.3404,17.7663,88.92,11,33,5.77,scattered clouds
78,Pisco,PE,-13.7,-76.2167,76.01,64,0,6.91,clear sky
79,Salalah,OM,17.0151,54.0924,77.09,61,75,5.75,broken clouds
80,Canico,PT,32.6333,-16.85,67.71,77,40,10.36,scattered clouds
81,Griffith,US,41.5284,-87.4237,21.04,59,0,11.5,clear sky
82,Atar,MR,20.5169,-13.0499,82.99,13,19,16.28,few clouds
83,Berlevag,NO,70.8578,29.0864,26.6,79,85,18.92,overcast clouds
84,Leh,IN,34.1667,77.5833,1.11,63,100,1.9,overcast clouds
85,Bredasdorp,ZA,-34.5322,20.0403,70.92,73,57,5.75,broken clouds
86,Mumbwa,ZM,-14.9783,27.0619,66.4,90,86,2.08,light rain
87,Manono,CD,-7.3,27.4167,73.92,88,93,2.91,overcast clouds
88,Bintulu,MY,3.1667,113.0333,75.61,100,40,5.75,light rain
89,Port Hardy,CA,50.6996,-127.4199,38.75,93,100,3.44,fog
90,Springbok,ZA,-29.6643,17.8865,78.53,42,100,2.44,overcast clouds
91,Shimoda,JP,34.6667,138.95,42.91,66,97,2.26,overcast clouds
92,Kahului,US,20.8947,-156.47,70.84,82,20,3.44,few clouds
93,Christchurch,NZ,-43.5333,172.6333,51.03,92,100,10.36,moderate rain
94,High Level,CA,58.5169,-117.136,-2.09,84,75,5.75,broken clouds
95,Mar Del Plata,AR,-38.0023,-57.5575,64.42,71,40,19.57,scattered clouds
96,Sawakin,SD,19.1059,37.3321,72.39,59,10,12.53,clear sky
97,Burnie,AU,-41.0667,145.9167,60.67,74,71,14.14,broken clouds
98,Bara,NG,10.3744,10.7288,85.78,12,86,7.61,overcast clouds
99,Puerto Ayora,EC,-0.7393,-90.3518,84.16,85,87,3.0,overcast clouds
100,Egvekinot,RU,66.3167,-179.1667,-20.27,88,20,8.12,few clouds
101,Merchtem,BE,50.9572,4.2303,42.8,59,0,4.61,clear sky
102,Castro,BR,-24.7911,-50.0119,79.79,45,0,3.4,clear sky
103,Ribeira Grande,PT,38.5167,-28.7,63.0,82,75,18.41,broken clouds
104,Vanimo,PG,-2.6741,141.3028,77.74,86,91,6.89,overcast clouds
105,Roebourne,AU,-20.7833,117.1333,86.72,66,58,2.66,broken clouds
106,Kamienna Gora,PL,50.7831,16.0304,34.18,71,11,7.23,few clouds
107,Jadu,LY,31.953,12.0261,53.49,44,16,8.21,few clouds
108,Bambous Virieux,MU,-20.3428,57.7575,80.85,83,40,1.14,scattered clouds
109,Paamiut,GL,61.994,-49.6678,21.16,94,100,13.44,light snow
110,Manta,EC,-0.95,-80.7333,80.38,78,100,5.75,overcast clouds
111,Garissa,KE,-0.4536,39.6401,90.05,27,66,8.16,broken clouds
112,Abalak,RU,58.1286,68.5944,3.88,91,100,7.87,overcast clouds
113,Takab,IR,36.4009,47.1133,17.89,83,23,3.98,few clouds
114,Bairiki,KI,1.3292,172.9752,81.1,71,25,16.06,scattered clouds
115,Verkhnyaya Inta,RU,65.9811,60.3094,6.69,89,100,12.03,light snow
116,Husavik,IS,66.0449,-17.3389,22.91,83,68,6.51,broken clouds
117,Fairbanks,US,64.8378,-147.7164,-5.98,78,0,4.61,clear sky
118,Ahuimanu,US,21.4447,-157.8378,72.46,84,40,6.91,scattered clouds
119,Mahebourg,MU,-20.4081,57.7,80.89,83,40,1.14,scattered clouds
120,Vao,NC,-22.6667,167.4833,79.95,82,100,6.2,overcast clouds
121,Popova,RU,42.9603,131.7228,12.29,65,32,14.88,scattered clouds
122,Souillac,MU,-20.5167,57.5167,80.98,83,40,1.14,scattered clouds
123,Tuensang,IN,26.2833,94.8333,47.03,98,11,1.23,few clouds
124,Ponta Delgada,PT,37.7333,-25.6667,65.5,67,75,14.97,broken clouds
125,Pangnirtung,CA,66.1451,-65.7125,-0.4,78,100,8.05,light snow
126,Grenville,GD,12.1167,-61.6167,78.85,67,48,13.42,scattered clouds
127,Troitsko-Pechorsk,RU,62.7084,56.1964,11.48,95,100,6.78,light snow
128,Tiarei,PF,-17.5333,-149.3333,77.02,76,91,14.81,overcast clouds
129,Intibuca,HN,14.3167,-88.1667,69.53,64,75,6.91,broken clouds
130,Longyearbyen,SJ,78.2186,15.6401,6.64,72,0,10.36,clear sky
131,Talara,PE,-4.5772,-81.2719,83.16,54,40,11.5,scattered clouds
132,Bengkulu,ID,-3.8004,102.2655,76.78,86,100,4.79,overcast clouds
133,Jeremie,HT,18.65,-74.1167,82.24,64,11,6.4,few clouds
134,Turukhansk,RU,65.8167,87.9833,-12.1,80,1,8.72,clear sky
135,Lao Cai,VN,22.4833,103.95,63.82,96,99,2.17,overcast clouds
136,Phulji,PK,26.8825,67.6807,65.73,26,0,2.51,clear sky
137,Saldanha,ZA,-33.0117,17.9442,69.85,88,100,18.19,overcast clouds
138,Codrington,AU,-38.2667,141.9667,63.93,66,16,10.58,few clouds
139,Tasiilaq,GL,65.6145,-37.6368,14.16,64,100,2.73,overcast clouds
140,Cabo San Lucas,MX,22.8909,-109.9124,77.61,33,20,8.05,few clouds
141,Santo Amaro Da Imperatriz,BR,-27.6881,-48.7786,86.95,65,1,8.28,clear sky
142,Morant Bay,JM,17.8815,-76.4093,87.42,75,34,14.36,scattered clouds
143,Stornoway,GB,58.2093,-6.3865,44.56,89,75,14.97,moderate rain
144,Kerman,IR,30.2832,57.0788,48.06,49,75,4.61,broken clouds
145,Olinda,BR,-8.0089,-34.8553,87.53,66,20,10.36,few clouds
146,Vestmannaeyjar,IS,63.4427,-20.2734,34.79,80,75,3.44,broken clouds
147,Banda Aceh,ID,5.5577,95.3222,77.9,86,43,13.02,scattered clouds
148,Kaspiyskiy,RU,45.3929,47.3707,41.14,74,96,10.56,overcast clouds
149,Champerico,GT,14.3,-91.9167,92.77,57,0,6.35,clear sky
150,Arica,CL,-18.475,-70.3042,83.75,53,0,11.5,clear sky
151,Zhigalovo,RU,54.8097,105.1578,-30.33,100,61,1.43,broken clouds
152,Kirra,GR,38.4333,22.45,55.8,73,96,3.96,overcast clouds
153,Cody,US,44.5263,-109.0565,26.2,73,0,7.0,clear sky
154,Cabedelo,BR,-6.9811,-34.8339,88.47,66,44,9.64,scattered clouds
155,Dikson,RU,73.5069,80.5464,-0.08,75,100,27.63,overcast clouds
156,Wenling,CN,28.3669,121.36,49.91,87,100,6.58,overcast clouds
157,Tura,IN,25.5198,90.2201,55.62,72,0,3.89,clear sky
158,Lavrentiya,RU,65.5833,-171.0,-19.01,94,11,6.96,few clouds
159,Cockburn Town,TC,21.4612,-71.1419,80.56,61,40,19.57,scattered clouds
160,Pacific Grove,US,36.6177,-121.9166,69.31,59,0,5.75,clear sky
161,Black River,JM,18.0264,-77.8487,84.2,54,0,8.77,clear sky
162,Taylorville,US,39.5489,-89.2945,19.99,68,100,10.36,overcast clouds
163,Coquimbo,CL,-29.9533,-71.3436,69.53,68,20,12.66,few clouds
164,Nanakuli,US,21.3906,-158.1547,72.72,85,0,5.75,clear sky
165,Katobu,ID,-4.9408,122.5276,75.11,93,100,4.56,overcast clouds
166,Pitimbu,BR,-7.4706,-34.8086,88.39,66,65,10.76,broken clouds
167,Sept-Iles,CA,50.2001,-66.3821,35.06,86,75,3.44,broken clouds
168,Atasu,KZ,48.6814,71.6433,10.83,97,100,12.21,overcast clouds
169,Ahipara,NZ,-35.1667,173.1667,68.52,88,97,29.1,overcast clouds
170,Komsomolskiy,UZ,40.4272,71.7189,40.42,87,100,2.3,fog
171,Qurayyat,SA,31.3318,37.3428,55.58,35,0,4.61,clear sky
172,Youghal,IE,51.95,-7.8506,49.68,100,99,14.29,overcast clouds
173,Kamenka,RU,51.3223,42.7678,20.59,98,100,4.47,overcast clouds
174,Katsuura,JP,35.1333,140.3,41.14,57,99,3.33,overcast clouds
175,Mahon,ES,39.8885,4.2658,54.16,66,0,4.61,clear sky
176,Comodoro Rivadavia,AR,-45.8667,-67.5,84.06,26,0,11.5,clear sky
177,Dhidhdhoo,MV,6.8833,73.1,81.66,74,100,7.38,overcast clouds
178,Broome,US,42.2506,-75.833,45.18,71,100,18.41,light snow
179,Anadyr,RU,64.75,177.4833,-30.5,75,0,13.42,clear sky
180,Moerai,PF,-22.4333,-151.3333,79.29,72,100,5.88,overcast clouds
181,Victoria,HK,22.2855,114.1577,68.18,88,85,4.0,overcast clouds
182,Amazar,RU,53.858,120.875,-18.76,98,72,3.65,broken clouds
183,Goderich,CA,43.7501,-81.7165,17.91,79,100,14.97,overcast clouds
184,Ostrovnoy,RU,68.0531,39.5131,26.15,96,88,4.97,light snow
185,Saint Anthony,US,45.0205,-93.218,2.14,66,20,4.61,few clouds
186,Butaritari,KI,3.0707,172.7902,82.08,75,53,16.69,broken clouds
187,Yamada,JP,39.4667,141.95,33.4,84,60,4.9,broken clouds
188,Mecca,SA,21.4267,39.8261,76.3,39,1,7.34,clear sky
189,Namibe,AO,-15.1961,12.1522,78.75,70,48,10.76,scattered clouds
190,Gotsu,JP,35.0,132.2167,41.45,74,49,7.61,scattered clouds
191,Sitrah,BH,26.1547,50.6206,64.4,66,0,20.71,clear sky
192,Cayenne,GF,4.9333,-52.3333,82.44,91,100,10.36,overcast clouds
193,Port Moresby,PG,-9.4431,147.1797,74.43,86,85,3.44,overcast clouds
194,Okha,RU,53.5739,142.9478,8.38,94,93,6.71,overcast clouds
195,Novikovo,RU,51.1537,37.8879,30.11,87,81,14.18,snow
196,Constitucion,CL,-35.3333,-72.4167,72.84,51,1,7.05,clear sky
197,Roald,NO,62.5833,6.1333,42.94,75,75,10.36,broken clouds
198,Tiksi,RU,71.6872,128.8694,-9.36,91,93,17.36,overcast clouds
199,Arti,RU,56.4234,58.5328,17.89,98,100,4.18,overcast clouds
200,Inhambane,MZ,-23.865,35.3833,78.57,64,38,12.5,scattered clouds
201,Huarmey,PE,-10.0681,-78.1522,76.26,71,80,10.74,broken clouds
202,Asfi,MA,32.2994,-9.2372,64.38,68,1,20.45,clear sky
203,Eyl,SO,7.9803,49.8164,76.17,65,71,17.58,broken clouds
204,Barrow,US,71.2906,-156.7887,-34.58,100,100,6.91,overcast clouds
205,Kruisfontein,ZA,-34.0033,24.7314,72.72,88,42,8.72,scattered clouds
206,Umea,SE,63.8284,20.2597,26.53,68,0,4.61,clear sky
207,Manggar,ID,-2.8833,108.2667,78.82,86,98,7.0,overcast clouds
208,Cherskiy,RU,68.75,161.3,-23.37,98,100,9.31,overcast clouds
209,Ancud,CL,-41.8697,-73.8203,77.23,62,72,6.24,broken clouds
210,Saint George,US,37.1041,-113.5841,54.54,23,0,6.91,clear sky
211,Saskylakh,RU,71.9167,114.0833,0.63,77,41,13.38,scattered clouds
212,Esperance,AU,-33.8667,121.9,64.4,68,99,13.62,overcast clouds
213,Guerrero Negro,MX,27.9769,-114.0611,67.08,47,100,3.78,overcast clouds
214,Kununurra,AU,-15.7667,128.7333,78.78,94,13,0.0,few clouds
215,Mokhsogollokh,RU,61.4681,128.9203,-31.38,100,20,3.49,few clouds
216,Rio Gallegos,AR,-51.6226,-69.2181,68.05,24,40,36.82,scattered clouds
217,Savannah Bight,HN,16.45,-85.85,84.25,76,0,14.67,clear sky
218,Tautira,PF,-17.7333,-149.15,77.02,76,98,14.03,light rain
219,Kamennomostskiy,RU,44.2983,40.1856,38.07,71,21,4.18,few clouds
220,Broken Hill,AU,-31.95,141.4333,75.22,24,0,9.13,clear sky
221,Susuman,RU,62.7833,148.1667,-38.74,99,84,0.69,broken clouds
222,Kuytun,RU,54.3419,101.5036,-25.64,100,84,2.19,broken clouds
223,Nouakchott,MR,18.0858,-15.9785,89.53,24,68,17.52,broken clouds
224,Chipinge,ZW,-20.1883,32.6236,65.86,69,39,5.1,scattered clouds
225,Baraboo,US,43.4711,-89.7443,13.95,60,0,3.44,clear sky
226,Beloha,MG,-25.1667,45.05,75.43,83,0,19.28,clear sky
227,Nikolskoye,RU,59.7035,30.7861,35.71,97,100,12.44,snow
228,Homer,US,59.6425,-151.5483,34.77,93,100,3.44,light snow
229,Saraza,PH,8.7356,117.78,78.66,89,100,10.49,light rain
230,Walvis Bay,NA,-22.9575,14.5053,76.15,64,15,10.36,few clouds
231,Imeni Poliny Osipenko,RU,52.4201,136.4853,11.75,94,100,15.23,light snow
232,San Jose De Ocoa,DO,18.55,-70.5,83.89,49,26,6.4,scattered clouds
233,Bow Island,CA,49.8668,-111.3684,37.42,49,96,3.44,overcast clouds
234,Sioux Lookout,CA,50.1001,-91.917,-12.62,70,75,3.44,broken clouds
235,Mount Gambier,AU,-37.8333,140.7667,61.9,53,80,5.82,broken clouds
236,Moron,AR,-34.6534,-58.6198,70.95,62,71,7.63,broken clouds
237,Ternate,ID,0.8,127.4,80.11,80,95,6.04,overcast clouds
238,Vostok,RU,46.4856,135.8833,4.8,98,100,2.19,light snow
239,Mount Vernon,US,40.9126,-73.8371,59.04,43,40,17.27,scattered clouds
240,Padang,ID,-0.9492,100.3543,77.97,81,96,3.44,overcast clouds
241,Valdivia,CL,-39.8142,-73.2459,75.29,22,82,5.59,broken clouds
242,Gondanglegi,ID,-7.7479,112.0132,73.8,96,100,4.16,moderate rain
243,Nikki,BJ,9.9401,3.2108,93.87,7,54,3.33,broken clouds
244,Pevek,RU,69.7008,170.3133,-25.02,98,100,8.86,overcast clouds
245,Georgetown,MY,5.4112,100.3354,82.89,75,20,5.75,few clouds
246,Sorland,NO,67.667,12.6934,32.16,66,48,7.49,scattered clouds
247,Redmond,US,47.674,-122.1215,47.73,88,7,1.01,clear sky
248,Ketchikan,US,55.3422,-131.6461,40.98,93,100,9.22,overcast clouds
249,Mangrol,IN,21.1167,70.1167,70.88,54,3,10.8,clear sky
250,Half Moon Bay,US,37.4636,-122.4286,65.88,72,0,3.44,haze
251,Severo-Kurilsk,RU,50.6789,156.125,18.27,79,69,2.28,broken clouds
252,Armidale,AU,-30.5167,151.65,50.81,98,40,7.11,scattered clouds
253,Sawtell,AU,-30.3833,153.1,68.02,73,100,11.5,overcast clouds
254,Pochutla,MX,15.7432,-96.4661,87.62,40,33,5.48,scattered clouds
255,Henties Bay,NA,-22.116,14.2845,74.86,79,14,8.14,light rain
256,Elat,IL,29.5581,34.9482,66.04,37,0,12.66,clear sky
257,Airai,TL,-8.9266,125.4092,59.31,93,86,2.19,overcast clouds
258,Palmer,US,42.1584,-72.3287,60.62,46,100,13.8,overcast clouds
259,Kenai,US,60.5544,-151.2583,24.15,96,20,3.44,few clouds
260,Kalabo,ZM,-14.97,22.6814,71.29,82,94,3.09,light rain
261,Willowmore,ZA,-33.2926,23.4895,89.87,23,61,14.74,broken clouds
262,Upernavik,GL,72.7868,-56.1549,-4.85,98,100,15.05,overcast clouds
263,Karratha,AU,-20.7377,116.8463,86.49,67,51,3.85,broken clouds
264,Kazan,RU,55.7887,49.1221,29.01,97,100,8.3,light snow
265,Togur,RU,58.3631,82.8265,-3.46,98,13,6.93,few clouds
266,Ugoofaaru,MV,5.6667,73.0,81.7,74,100,8.3,overcast clouds
267,Sabya,SA,17.1495,42.6254,80.22,66,59,6.08,broken clouds
268,Chokurdakh,RU,70.6333,147.9167,-1.98,95,100,13.78,overcast clouds
269,Manturovo,RU,58.3353,44.7619,20.66,94,89,8.48,overcast clouds
270,Am Timan,TD,11.0297,20.2827,86.88,10,82,5.06,broken clouds
271,Sibolga,ID,1.7427,98.7792,76.03,83,79,3.31,broken clouds
272,Mareeba,AU,-17.0,145.4333,74.12,95,26,2.44,scattered clouds
273,Bambari,CF,5.768,20.6757,90.12,16,35,1.03,scattered clouds
274,Ulladulla,AU,-35.35,150.4667,62.1,83,100,3.0,overcast clouds
275,Vershino-Darasunskiy,RU,52.35,115.5167,-15.57,96,77,2.8,broken clouds
276,Codo,BR,-4.4553,-43.8856,84.4,71,71,3.24,broken clouds
277,Katherine,AU,-14.4667,132.2667,79.12,83,8,5.75,clear sky
278,Almaznyy,RU,48.0448,40.045,39.34,98,100,14.05,overcast clouds
279,San Cristobal,VE,7.7669,-72.225,77.18,39,96,8.28,overcast clouds
280,Ambilobe,MG,-13.2,49.05,73.36,94,22,1.28,moderate rain
281,Gawler,AU,-34.6,138.7333,73.22,37,48,5.99,scattered clouds
282,Darhan,MN,49.4867,105.9228,-19.1,100,76,1.07,broken clouds
283,San Marcos,US,33.1434,-117.1661,81.73,27,0,7.0,clear sky
284,Saint-Joseph,RE,-21.3667,55.6167,77.38,79,27,3.31,scattered clouds
285,Dogondoutchi,NE,13.6393,4.0287,87.28,7,31,7.85,scattered clouds
286,Cherdyn,RU,60.403,56.4787,14.74,96,100,6.06,overcast clouds
287,Otavi,NA,-19.65,17.3333,68.25,80,95,4.9,light rain
288,Kaeo,NZ,-35.1,173.7833,68.77,82,95,27.22,overcast clouds
289,Sao Filipe,CV,14.8961,-24.4956,79.93,45,91,17.52,overcast clouds
290,Along,IN,28.1667,94.7667,49.23,88,1,2.44,clear sky
291,Voh,NC,-20.9667,164.7,76.05,92,97,2.21,overcast clouds
292,Caravelas,BR,-17.7125,-39.2481,84.02,63,95,9.91,overcast clouds
293,Salta,AR,-24.7859,-65.4117,64.69,85,100,7.0,light intensity drizzle
294,Truth Or Consequences,US,33.1284,-107.2528,45.91,46,0,18.41,clear sky
295,Saint-Augustin,CA,51.226,-58.6502,32.47,99,100,15.99,snow
296,Provideniya,RU,64.3833,-173.3,-12.17,83,4,5.73,clear sky
297,Belmonte,BR,-15.8631,-38.8828,84.2,65,99,8.66,overcast clouds
298,Faya,SA,18.3851,42.4509,60.91,75,28,3.13,scattered clouds
299,La Ronge,CA,55.1001,-105.2842,-9.15,54,20,1.14,few clouds
300,Yumen,CN,40.2833,97.2,25.07,45,100,7.83,overcast clouds
301,Havre-Saint-Pierre,CA,50.2334,-63.5986,34.16,93,100,9.22,overcast clouds
302,Kirakira,SB,-10.4544,161.9205,77.54,88,100,5.19,overcast clouds
303,Ponta Do Sol,PT,32.6667,-17.1,68.13,67,17,3.83,few clouds
304,Itupiranga,BR,-5.1347,-49.3267,86.32,97,100,2.77,overcast clouds
305,Krasnaya Gora,RU,52.9995,31.6023,30.11,92,7,8.66,clear sky
306,Sola,VU,-13.8833,167.55,77.92,82,100,7.76,overcast clouds
307,Plast,RU,54.3691,60.8136,9.07,96,100,2.59,overcast clouds
308,Jalpa,MX,21.6333,-102.9667,62.4,27,0,2.64,clear sky
309,Bangassou,CF,4.7413,22.8184,84.79,22,80,2.39,broken clouds
310,Dauriya,RU,49.9333,116.8667,-25.73,100,65,0.72,broken clouds
311,Tuatapere,NZ,-46.1333,167.6833,51.82,75,97,8.61,overcast clouds
312,Poya,NC,-21.35,165.15,77.16,87,97,2.82,overcast clouds
313,Minna,NG,9.6139,6.5569,96.51,20,65,2.3,broken clouds
314,Kodiak,US,57.79,-152.4072,38.71,65,0,6.91,clear sky
315,Krasnoselkup,RU,65.7,82.4667,-5.39,90,5,13.47,clear sky
316,Tarko-Sale,RU,64.9225,77.785,-7.29,92,6,15.59,clear sky
317,Kyabram,AU,-36.3167,145.05,71.87,52,0,15.26,clear sky
318,Vega De Alatorre,MX,20.0333,-96.6333,73.89,73,89,7.72,overcast clouds
319,Hami,CN,42.8,93.45,28.56,53,80,1.12,broken clouds
320,Manali,IN,13.1667,80.2667,81.07,76,14,10.47,few clouds
321,Bay Roberts,CA,47.5999,-53.2648,43.52,79,100,8.99,overcast clouds
322,Torbay,CA,47.6666,-52.7314,42.76,76,100,16.11,overcast clouds
323,Najran,SA,17.4924,44.1277,74.05,25,12,6.38,few clouds
324,Manokwari,ID,-0.8667,134.0833,77.0,81,96,6.82,overcast clouds
325,Quatre Cocos,MU,-20.2078,57.7625,80.71,81,61,8.12,light rain
326,Muyinga,BI,-2.8333,30.3333,60.73,88,100,0.94,light rain
327,Arlit,NE,18.7369,7.3853,78.4,9,0,4.88,clear sky
328,Cabra,ES,37.4725,-4.4421,62.13,59,74,1.01,broken clouds
329,Benguela,AO,-12.5763,13.4055,80.83,59,88,7.25,overcast clouds
330,Cidreira,BR,-30.1811,-50.2056,79.65,68,8,15.97,clear sky
331,Kuli,RU,42.0185,47.2434,21.54,39,3,7.27,clear sky
332,Oran,DZ,35.6911,-0.6417,58.93,72,20,11.5,few clouds
333,Omsukchan,RU,62.5333,155.8,-30.28,89,67,3.85,broken clouds
334,Kabarnet,KE,0.4919,35.743,65.48,40,42,1.54,scattered clouds
335,Seoul,KR,37.5683,126.9778,29.77,59,100,4.61,overcast clouds
336,Aloleng,PH,16.1307,119.7824,77.94,70,100,8.93,overcast clouds
337,Kulhudhuffushi,MV,6.6221,73.07,81.79,73,100,7.92,overcast clouds
338,Neuquen,AR,-38.9516,-68.0591,82.29,16,0,9.22,clear sky
339,Piedras Negras,MX,28.7,-100.5167,60.28,50,0,19.57,clear sky
340,Mangaratiba,BR,-22.9597,-44.0406,81.46,87,69,4.79,broken clouds
341,Devils Lake,US,48.1128,-98.8651,3.94,79,75,10.36,broken clouds
342,Mkushi,ZM,-13.6202,29.3939,64.29,87,88,4.9,overcast clouds
343,Izhma,RU,65.0083,53.9113,12.11,93,100,9.08,overcast clouds
344,Chumikan,RU,54.7183,135.315,6.35,95,100,1.61,overcast clouds
345,Ayan,RU,56.45,138.1667,-5.66,80,58,6.69,broken clouds
346,Vallenar,CL,-28.5708,-70.7581,84.56,24,0,11.39,clear sky
347,Norman Wells,CA,65.282,-126.8329,-18.36,69,40,0.0,scattered clouds
348,Kavaratti,IN,10.5669,72.642,80.83,70,1,7.72,clear sky
349,Chingola,ZM,-12.529,27.8838,64.38,91,98,3.11,light rain
350,Young,UY,-32.6833,-57.6333,68.23,83,100,15.52,overcast clouds
351,Lasa,IT,46.6166,10.7002,37.31,61,0,1.01,clear sky
352,Luderitz,NA,-26.6481,15.1594,75.06,65,34,3.98,scattered clouds
353,Wakkanai,JP,45.4094,141.6739,25.63,81,42,20.89,light snow
354,Klaksvik,FO,62.2266,-6.589,40.12,87,100,11.01,overcast clouds
355,Kralendijk,BQ,12.15,-68.2667,82.38,69,75,25.32,broken clouds
356,Olafsvik,IS,64.8945,-23.7142,28.18,69,51,25.41,broken clouds
357,Ternuvate,UA,47.8305,36.1276,35.08,79,100,19.6,overcast clouds
358,Yulara,AU,-25.2406,130.9889,73.24,35,3,6.91,clear sky
359,Port Elizabeth,ZA,-33.918,25.5701,73.69,94,0,19.57,clear sky
360,Torres,BR,-29.3353,-49.7269,80.8,63,0,16.2,clear sky
361,Floresta,BR,-8.6011,-38.5686,90.05,40,57,6.71,broken clouds
362,Sur,OM,22.5667,59.5289,70.61,61,1,9.64,clear sky
363,Yenagoa,NG,4.9247,6.2642,88.61,50,98,10.78,overcast clouds
364,Byron Bay,AU,-28.65,153.6167,68.88,66,83,14.74,broken clouds
365,Shubarshi,KZ,48.5872,57.1869,30.33,87,100,14.79,overcast clouds
366,Iqaluit,CA,63.7506,-68.5145,-24.07,62,75,2.3,broken clouds
367,Peque,CO,7.0212,-75.9093,82.89,49,56,0.29,broken clouds
368,Mogocha,RU,53.7333,119.7667,-16.2,97,99,3.8,overcast clouds
369,Nanortalik,GL,60.1432,-45.2371,30.76,96,100,7.36,snow
370,Sisimiut,GL,66.9395,-53.6735,12.25,87,89,37.36,overcast clouds
371,Puerto Carreno,CO,6.189,-67.4859,93.18,40,0,16.11,clear sky
372,Ivancsa,HU,47.1567,18.8203,40.28,54,2,6.15,clear sky
373,Naze,JP,28.3667,129.4833,62.4,92,100,15.14,light rain
374,Northam,GB,51.0333,-4.2167,48.42,93,100,21.0,overcast clouds
375,Malindi,KE,-3.2175,40.1191,78.31,83,100,12.1,overcast clouds
376,Borshchiv,UA,48.8033,26.0435,31.14,75,97,7.63,overcast clouds
377,Phenix City,US,32.471,-85.0008,69.24,59,0,4.61,clear sky
378,Charlestown,AU,-32.95,151.6667,70.74,77,88,5.01,overcast clouds
379,Ranong,TH,9.9658,98.6348,76.42,89,70,4.38,broken clouds
380,Sergeyevka,KZ,53.88,67.4158,6.19,99,96,6.08,overcast clouds
381,Puqi,CN,29.7167,113.8833,41.07,92,92,0.89,overcast clouds
382,Dingle,PH,10.9995,122.6711,74.79,92,92,8.72,overcast clouds
383,Marawi,PH,7.9986,124.2928,66.65,91,100,3.13,overcast clouds
384,Nalut,LY,30.3333,10.85,59.2,25,30,6.24,scattered clouds
385,Atherton,GB,53.5237,-2.4935,46.89,85,100,8.01,overcast clouds
386,Blythe,US,33.6103,-114.5964,71.04,22,0,8.05,clear sky
387,Flin Flon,CA,54.7682,-101.865,-11.36,64,0,4.61,clear sky
388,Lagoa,PT,39.05,-27.9833,60.04,87,100,22.03,overcast clouds
389,Yarada,IN,17.65,83.2667,77.32,78,40,2.3,mist
390,Solaro,IT,44.8799,9.1732,46.85,68,6,1.99,clear sky
391,Nome,US,64.5011,-165.4064,1.47,55,100,10.36,overcast clouds
392,Yalta,UA,44.5,34.1667,40.62,82,81,12.48,broken clouds
393,Larsnes,NO,62.2028,5.5773,42.62,90,100,11.25,overcast clouds
394,San Quintin,MX,30.4833,-115.95,70.7,31,3,2.48,clear sky
395,Ferme-Neuve,CA,46.7001,-75.4493,2.98,90,100,11.21,light snow
396,Imbituba,BR,-28.24,-48.6703,82.29,61,0,14.52,clear sky
397,Mulhouse,FR,47.6667,7.4167,41.59,60,0,4.61,clear sky
398,Bernalillo,US,35.05,-106.6673,42.66,50,20,13.8,few clouds
399,Chuy,UY,-33.6971,-53.4616,75.09,82,98,5.41,overcast clouds
400,Santiago,CL,-33.4569,-70.6483,90.28,22,0,13.8,clear sky
401,Guanare,VE,9.0418,-69.7421,93.09,34,75,4.85,broken clouds
402,Maragogi,BR,-9.0122,-35.2225,85.77,62,71,15.84,broken clouds
403,Gillingham,GB,51.3891,0.5486,44.58,66,97,8.01,overcast clouds
404,Nong Chik,TH,6.8436,101.178,77.23,80,99,7.67,overcast clouds
405,Kashan,IR,33.9831,51.4364,51.39,76,0,0.0,clear sky
406,Opuwo,NA,-18.0607,13.84,74.12,69,99,9.57,moderate rain
407,Guilin,CN,25.2819,110.2864,42.91,90,98,7.16,overcast clouds
408,Vila Franca Do Campo,PT,37.7167,-25.4333,65.19,70,97,10.94,overcast clouds
409,Necochea,AR,-38.5473,-58.7368,68.04,45,1,11.56,clear sky
410,Hervey Bay,AU,-25.2986,152.8535,68.11,64,92,21.3,overcast clouds
411,Kindersley,CA,51.4668,-109.1682,28.18,73,20,14.97,few clouds
412,Vila Velha,BR,-20.3297,-40.2925,76.95,91,75,10.36,light rain
413,Mikun,RU,62.3547,50.0771,16.66,98,100,4.16,overcast clouds
414,Bathsheba,BB,13.2167,-59.5167,81.21,69,75,24.16,broken clouds
415,Inirida,CO,3.8653,-67.9239,91.53,51,94,3.38,overcast clouds
416,Krasnyy,RU,54.5678,31.4333,23.38,88,11,13.0,few clouds
417,Leiyang,CN,26.4024,112.8591,41.23,95,100,4.85,overcast clouds
418,Kilakarai,IN,9.2333,78.7833,78.49,77,97,15.66,overcast clouds
419,Alenquer,BR,-1.9417,-54.7383,84.54,85,97,4.47,overcast clouds
420,Tommot,RU,58.9564,126.2925,-26.05,100,82,0.85,broken clouds
421,Touros,BR,-5.1989,-35.4608,88.7,62,32,10.56,scattered clouds
422,Namatanai,PG,-3.6667,152.4333,78.06,82,100,3.78,light rain
423,Duldurga,RU,50.6761,113.5931,-17.46,98,59,3.53,broken clouds
424,Bloemfontein,ZA,-29.1211,26.214,76.48,50,0,5.75,clear sky
425,Adrar,MR,20.5022,-10.0711,77.99,14,24,14.29,few clouds
426,Chippewa Falls,US,44.9369,-91.3929,2.97,66,0,3.44,clear sky
427,Douglas,US,41.3,-96.167,16.9,52,100,3.44,overcast clouds
428,Kushiro,JP,42.975,144.3747,17.19,90,53,1.99,broken clouds
429,Puerto Escondido,MX,15.85,-97.0667,85.03,74,0,3.44,clear sky
430,Kyshtovka,RU,56.555,76.6271,-2.34,94,7,9.22,clear sky
431,Deputatskiy,RU,69.3,139.9,-12.93,92,100,6.35,overcast clouds
432,Khani,GE,41.9563,42.9566,35.17,81,52,6.38,broken clouds
433,Harrisonburg,US,38.4496,-78.8689,56.26,56,75,0.0,broken clouds
434,Yazd,IR,31.8972,54.3675,48.31,71,100,9.22,overcast clouds
435,Krasnokamensk,RU,50.0979,118.0369,-20.76,100,52,2.48,broken clouds
436,Mincivan,AZ,39.0294,46.7185,47.93,55,0,5.08,clear sky
437,Lorengau,PG,-2.0226,147.2712,80.76,76,95,4.09,overcast clouds
438,Flinders,AU,-34.5833,150.8552,67.8,93,97,4.0,overcast clouds
439,Bone,DE,51.9669,12.1396,35.71,72,87,7.16,overcast clouds
440,Phuket,TH,8.0,98.25,87.1,86,75,2.3,broken clouds
441,Sinnamary,GF,5.3833,-52.95,79.95,81,75,12.24,broken clouds
442,Petropavlovsk-Kamchatskiy,RU,53.0452,158.6483,-1.61,71,0,4.47,clear sky
443,Kalga,RU,50.9251,118.898,-16.4,100,94,3.62,overcast clouds
444,Roquetas De Mar,ES,36.7642,-2.6148,59.61,69,5,2.35,clear sky
445,Selfoss,IS,63.9331,-20.9971,34.68,73,21,13.71,few clouds
446,Keti Bandar,PK,24.1447,67.4497,71.33,53,0,9.73,clear sky
447,Nizhnevartovsk,RU,60.9344,76.5531,-4.99,84,0,11.18,clear sky
448,Gat,IL,31.61,34.7642,57.88,100,0,6.29,clear sky
449,Montrose,US,38.4166,-108.2673,31.78,44,29,3.69,scattered clouds
450,Dumbravita,RO,45.7667,25.4333,31.08,51,31,1.43,scattered clouds
451,Sabinas Hidalgo,MX,26.5,-100.1667,65.79,37,0,19.51,clear sky
452,Porterville,US,36.0652,-119.0168,61.72,59,0,3.44,clear sky
453,Mitu,CO,1.1983,-70.1733,81.72,79,98,3.13,overcast clouds
454,Amga,RU,60.8953,131.9608,-32.96,100,76,1.81,broken clouds
455,Shasta Lake,US,40.6804,-122.3708,57.92,40,0,4.41,clear sky
456,Emba,KZ,48.8264,58.1442,29.73,89,100,15.84,overcast clouds
457,Jablah,SY,35.3614,35.9256,53.89,76,0,3.44,clear sky
458,Mityana,UG,0.4175,32.0228,72.99,83,100,2.19,overcast clouds
459,General Nakar,PH,14.7631,121.635,75.27,91,100,7.45,overcast clouds
460,Honiara,SB,-9.4333,159.95,76.28,88,100,1.01,overcast clouds
461,Nioro,GM,13.35,-15.75,94.42,6,28,13.11,scattered clouds
462,Jalu,LY,29.0331,21.5482,60.13,35,0,6.91,clear sky
463,Lagunas,PE,-5.2269,-75.6753,84.4,66,97,3.58,overcast clouds
464,Mocuba,MZ,-16.8392,36.9856,74.1,93,98,5.91,light rain
465,Bukid,PH,5.5717,125.4056,79.63,79,100,13.35,overcast clouds
466,Richards Bay,ZA,-28.783,32.0377,76.71,78,0,11.5,clear sky
467,Tulsipur,NP,28.131,82.2973,51.31,83,0,3.78,clear sky
468,Poso,ID,-1.3959,120.7524,75.2,90,100,0.34,overcast clouds
469,Yinchuan,CN,38.4681,106.2731,28.51,73,98,3.11,overcast clouds
470,Kautokeino,NO,69.0125,23.0412,-12.71,99,41,2.46,scattered clouds
471,Mendoza,AR,-32.8908,-68.8272,71.13,26,0,4.61,clear sky
472,Esna,EG,25.2934,32.554,69.82,32,0,14.63,clear sky
473,Alexandria,EG,31.2156,29.9553,59.54,72,20,11.5,few clouds
474,Jinchang,CN,38.4953,102.1739,24.35,54,100,3.76,overcast clouds
475,College,US,64.8569,-147.8028,-6.0,78,75,4.61,broken clouds
476,Laguna,US,38.421,-121.4238,67.96,72,0,1.01,clear sky
477,Barsi,IN,18.2333,75.7,75.81,31,7,8.86,clear sky
478,Vila,PT,42.0304,-8.1588,49.75,78,75,3.58,broken clouds
479,Leavenworth,US,39.2333,-95.0336,23.59,48,0,3.0,clear sky
480,Omboue,GA,-1.5746,9.2618,80.82,80,65,9.98,broken clouds
481,Camana,PE,-16.6228,-72.7111,75.36,70,45,10.56,scattered clouds
482,Tabuk,PH,17.4189,121.4443,69.94,89,100,4.25,overcast clouds
483,Dzaoudzi,YT,-12.7887,45.2699,80.49,78,0,4.61,clear sky
484,Veraval,IN,20.9,70.3667,70.59,55,3,9.19,clear sky
485,Rio Grande,BR,-32.035,-52.0986,81.88,61,21,13.35,few clouds
486,Baruun-Urt,MN,46.6806,113.2792,-12.46,99,66,3.67,broken clouds
487,Port Hedland,AU,-20.3167,118.5667,84.25,89,49,3.44,scattered clouds
488,Batsfjord,NO,70.6345,29.7185,18.48,85,77,12.93,broken clouds
489,Marabba,SD,12.35,32.1833,84.47,19,1,11.77,clear sky
490,La Primavera,CO,5.4906,-70.4092,90.27,41,100,11.21,overcast clouds
491,Hovd,MN,48.0056,91.6419,-16.2,84,30,3.89,scattered clouds
492,Mehamn,NO,71.0357,27.8492,26.55,80,75,20.71,broken clouds
493,Oistins,BB,13.0667,-59.5333,80.69,69,75,24.16,broken clouds
494,Denpasar,ID,-8.65,115.2167,82.06,88,40,4.61,scattered clouds
495,Ryzdvyanyy,RU,45.2656,41.8389,41.72,74,100,8.81,overcast clouds
496,Barreirinhas,BR,-2.7469,-42.8264,85.77,63,94,11.36,overcast clouds
497,Faanui,PF,-16.4833,-151.75,79.74,76,80,13.13,light rain
498,Viedma,AR,-40.8135,-62.9967,81.3,15,93,13.11,overcast clouds
499,Kismayo,SO,-0.3582,42.5454,77.38,81,76,15.03,broken clouds
500,Gunjur,GM,13.2019,-16.7339,95.07,12,0,13.8,clear sky
501,Maningrida,AU,-12.0667,134.2667,80.58,75,5,4.85,clear sky
502,Maciel,AR,-32.4557,-60.8874,80.1,22,96,11.79,overcast clouds
503,Birjand,IR,32.8663,59.2211,46.87,66,75,13.8,broken clouds
504,Santa Cruz,BO,-17.8,-63.1667,80.65,65,75,19.57,light rain
505,Kupang,ID,-10.1667,123.5833,78.13,89,99,4.81,overcast clouds
506,Langsa,ID,4.4683,97.9683,75.31,91,70,2.91,broken clouds
507,Belaya Glina,RU,46.07,40.86,44.42,74,100,16.02,overcast clouds
508,Vieux-Habitants,GP,16.0589,-61.7659,82.71,58,8,13.62,clear sky
509,Saint-Francois,FR,46.4154,3.9054,41.68,74,0,6.91,clear sky
510,Nizwa,OM,22.9333,57.5333,69.85,31,0,2.75,clear sky
511,Buala,SB,-8.145,159.5921,76.48,86,100,2.26,light rain
512,Inuvik,CA,68.3499,-133.7218,-19.44,76,75,8.05,broken clouds
513,Kavieng,PG,-2.5744,150.7967,80.83,77,100,3.06,light rain
514,Djambala,CG,-2.5447,14.7533,78.03,67,85,2.89,overcast clouds
515,Karlskoga,SE,59.3267,14.5239,37.06,91,100,15.37,light rain
516,Okhotsk,RU,59.3833,143.3,-14.06,82,9,9.06,clear sky
517,Mahajanga,MG,-15.7167,46.3167,81.28,75,49,8.99,scattered clouds
518,Tilichiki,RU,60.4667,166.1,-21.44,92,10,8.97,clear sky
519,Dali,CN,25.7,100.1833,41.0,73,2,3.87,clear sky
520,Ambatondrazaka,MG,-17.8333,48.4167,67.89,92,53,4.07,broken clouds
521,Meulaboh,ID,4.1363,96.1285,77.85,86,76,4.09,broken clouds
522,Bilibino,RU,68.0546,166.4372,-37.61,100,92,1.36,overcast clouds
523,Zhumadian,CN,32.9794,114.0294,37.08,93,81,2.59,broken clouds
524,Mokolo,CM,10.7398,13.8019,79.25,12,50,6.51,scattered clouds
525,Summerside,CA,46.3959,-63.7876,46.83,75,99,11.5,overcast clouds
526,Bartica,GY,6.4,-58.6167,80.92,85,95,5.48,overcast clouds
527,Peoria,US,40.7667,-89.7668,18.54,62,100,9.22,overcast clouds
528,Puerto Baquerizo Moreno,EC,-0.9,-89.6,83.39,65,20,12.66,few clouds
529,Khorixas,NA,-20.3667,14.9667,77.16,63,100,11.97,overcast clouds
530,Bukama,CD,-9.2,25.85,72.9,91,94,3.51,overcast clouds
531,Allende,MX,25.2833,-100.0167,76.75,43,0,10.89,clear sky
532,Fare,PF,-16.7,-151.0167,80.87,73,97,15.03,light rain
533,Matagami,CA,49.7502,-77.6328,-16.49,69,0,12.66,clear sky
534,Galle,LK,6.0367,80.217,76.59,89,96,4.18,overcast clouds
535,Puerto Del Rosario,ES,28.5004,-13.8627,71.28,73,20,11.5,few clouds
536,Gorom-Gorom,BF,14.4439,-0.2361,90.54,7,0,2.57,clear sky
537,Enid,US,36.3956,-97.8784,30.31,39,0,13.8,clear sky
538,Sechura,PE,-5.5569,-80.8222,80.46,54,95,6.76,overcast clouds
539,Rush,IE,53.5223,-6.0931,50.97,72,40,12.66,scattered clouds
540,Ko Samui,TH,9.5357,99.9357,82.63,71,78,10.94,broken clouds
541,Ligayan,PH,4.6533,119.4706,81.66,70,100,2.8,overcast clouds
542,Pishin,PK,30.5803,66.9961,48.9,35,0,2.53,clear sky
543,Xining,CN,36.6167,101.7667,11.5,67,2,1.57,clear sky
544,Locri,IT,38.2414,16.2623,58.24,86,100,5.48,overcast clouds
545,Smolenka,RU,52.1352,113.4974,-27.06,68,48,0.0,scattered clouds
546,Srednekolymsk,RU,67.45,153.6833,-32.76,98,56,7.23,broken clouds
547,Jackson,US,42.4165,-122.8345,63.64,70,0,0.0,clear sky
548,Mandalgovi,MN,45.7625,106.2708,-6.29,79,50,5.28,scattered clouds
549,Hope,US,33.6671,-93.5916,43.75,68,100,9.89,light rain
550,Urumqi,CN,43.801,87.6005,11.35,85,75,2.24,mist
551,Rundu,NA,-17.9333,19.7667,73.69,68,83,6.42,broken clouds
552,Ypsonas,CY,34.6884,32.9574,58.28,77,0,8.05,clear sky
553,Fougeres,FR,48.35,-1.2,42.66,71,90,7.05,overcast clouds
554,Baykit,RU,61.67,96.37,-13.85,100,23,2.59,few clouds
555,Finnsnes,NO,69.2296,17.9811,22.96,95,56,3.83,broken clouds
556,Nizhniy Tagil,RU,57.9194,59.965,7.54,99,96,2.66,overcast clouds
557,Vidim,RU,56.4088,103.1106,-21.32,100,74,3.02,broken clouds
558,Awjilah,LY,29.1081,21.2869,60.26,35,0,5.68,clear sky
559,Saiha,IN,22.4833,92.9667,49.24,58,4,4.18,clear sky
560,Belaya Gora,RU,68.5333,146.4167,-23.1,91,100,6.24,overcast clouds
561,Caltagirone,IT,37.2368,14.5126,51.51,78,100,5.06,overcast clouds
562,Bubaque,GW,11.2833,-15.8333,81.73,48,1,12.48,clear sky
563,Kirkenes,NO,69.7271,30.0458,11.35,85,43,10.36,scattered clouds
564,Antofagasta,CL,-23.65,-70.4,74.21,62,8,9.4,clear sky
565,Sorong,ID,-0.8833,131.25,77.9,86,100,1.03,overcast clouds
566,Lazurne,UA,46.084,32.5295,35.02,66,48,18.81,scattered clouds
567,Usinsk,RU,65.9939,57.5281,8.35,94,100,17.09,light snow
568,Bagotville,AU,-28.9833,153.4167,63.64,90,70,11.54,broken clouds
569,Briancon,FR,44.9,6.65,36.37,84,70,2.64,broken clouds
570,Gannan,CN,47.9147,123.5031,-6.99,87,14,5.84,few clouds
571,Lingyuan,CN,41.24,119.4011,14.88,88,77,3.29,broken clouds
572,Avera,US,33.194,-82.5271,64.9,48,98,4.32,overcast clouds
573,Ipoh,MY,4.5841,101.0829,78.71,78,40,3.44,scattered clouds
574,Lata,PT,40.1629,-8.3327,59.72,72,95,5.12,overcast clouds
575,Grindavik,IS,63.8424,-22.4338,25.27,74,0,14.97,clear sky
576,Mochalishche,RU,56.3306,48.3547,29.17,95,100,7.65,light snow
577,Port Pirie,AU,-33.1833,138.0167,74.32,26,60,5.84,broken clouds
578,Malanje,AO,-9.5402,16.341,71.19,73,70,4.12,light rain
579,Pizarro,CO,4.9533,-77.366,80.53,82,66,7.76,light rain
580,Santa Marta,CO,11.2408,-74.199,96.35,67,20,9.22,few clouds
581,Makarov,RU,48.6333,142.8,18.46,96,100,8.03,light snow
582,Nemuro,JP,43.3236,145.575,21.6,79,62,2.93,broken clouds
583,Payson,US,40.0444,-111.7321,45.55,48,40,4.61,scattered clouds
584,Jumla,NP,29.2747,82.1838,28.78,80,4,6.62,clear sky
585,Tiznit,MA,29.5833,-9.5,63.18,46,0,8.01,clear sky
586,Murud,IN,18.3258,72.965,73.58,64,4,7.56,clear sky
587,Mackenzie,CA,55.2999,-123.1698,34.02,51,100,8.05,overcast clouds
588,Twentynine Palms,US,34.1356,-116.0542,74.48,19,12,1.99,few clouds
589,Paysandu,UY,-32.3214,-58.0756,69.6,75,100,16.15,overcast clouds
590,Iralaya,HN,15.0,-83.2333,84.29,75,10,12.06,clear sky
591,Sabang,ID,5.8933,95.3214,82.53,74,53,18.23,broken clouds
592,Thaton,MM,16.9206,97.3714,72.0,57,23,3.04,few clouds
593,Alibag,IN,18.6411,72.8792,77.07,66,5,8.34,clear sky
594,Beni,CD,0.5,29.4667,72.7,52,100,3.67,overcast clouds
595,Blackwater,AU,-23.5833,148.8833,70.47,80,21,10.33,few clouds
596,Bridlington,GB,54.0831,-0.1919,44.89,85,100,11.99,overcast clouds
597,Tessalit,ML,20.1986,1.0114,81.21,8,50,12.12,scattered clouds
598,Ballangen,NO,68.3428,16.8315,16.11,79,0,5.75,clear sky
599,Lincoln,US,40.8,-96.667,23.16,46,20,3.0,few clouds
600,Igarka,RU,67.4667,86.5833,-10.26,84,4,10.56,clear sky
601,Raga,SS,8.4596,25.678,79.77,17,44,4.38,scattered clouds
602,Laurel,US,39.0993,-76.8483,58.28,52,0,14.97,clear sky
603,Dubbo,AU,-32.25,148.6167,60.93,82,0,9.22,clear sky
604,Senj,HR,44.9894,14.9058,47.07,69,39,12.84,scattered clouds
605,Bafq,IR,31.6128,55.4107,53.37,47,99,9.55,overcast clouds
606,Taltal,CL,-25.4,-70.4833,71.33,70,6,7.27,clear sky
607,Pilar,BR,-9.5972,-35.9567,87.73,51,57,15.43,broken clouds
608,Kashi,CN,39.4547,75.9797,40.21,28,97,2.24,overcast clouds
609,Pyay,MM,18.8167,95.2167,64.69,51,100,1.21,overcast clouds
610,Saurimo,AO,-9.6608,20.3916,68.76,87,99,3.96,moderate rain
611,Dunedin,NZ,-45.8742,170.5036,50.81,72,100,5.99,overcast clouds
612,Izumo,JP,35.3667,132.7667,33.75,77,47,6.17,scattered clouds
613,Sistranda,NO,63.7256,8.834,35.91,84,100,14.97,light rain
614,Jacareacanga,BR,-6.2222,-57.7528,83.8,83,91,2.93,overcast clouds
615,Uyskoye,RU,54.3775,60.0047,8.15,97,100,2.8,overcast clouds
616,Suratgarh,IN,29.3167,73.9,63.63,22,0,4.16,clear sky
617,Kankon,IN,15.0167,74.0167,75.87,72,5,6.15,clear sky
618,Mattru,SL,7.6244,-11.8332,94.44,31,56,7.11,broken clouds
619,Yabrud,SY,33.9674,36.6574,40.66,45,0,4.25,clear sky
620,Sakakah,SA,29.9697,40.2064,56.77,32,0,5.3,clear sky
621,Uttarkashi,IN,30.7333,78.45,47.79,39,0,7.45,clear sky
622,Marsh Harbour,BS,26.5412,-77.0636,76.21,76,8,10.11,light rain
623,Ginir,ET,7.1333,40.7,64.47,29,27,1.48,scattered clouds
624,Kem,RU,64.9555,34.5793,14.02,93,99,8.03,overcast clouds
625,Naples,IT,40.8333,14.25,56.01,68,40,11.5,scattered clouds
626,Rock Sound,BS,24.9,-76.2,77.27,78,5,12.84,clear sky
627,Nyurba,RU,63.2842,118.3319,-22.18,100,100,2.91,overcast clouds
628,Severobaykalsk,RU,55.65,109.3167,-17.18,92,52,5.21,broken clouds
629,Kemijarvi,FI,66.7131,27.4306,-3.33,100,22,1.54,few clouds
630,Cumberland,US,35.0502,-78.8664,70.09,43,0,13.8,clear sky
631,Santa Cruz Del Norte,CU,23.1539,-81.9236,83.01,72,20,9.82,few clouds
632,Wanning,CN,18.8003,110.3967,65.59,82,85,6.67,overcast clouds
633,San Andres,CO,12.5847,-81.7006,86.02,66,40,16.11,scattered clouds
634,Llandrindod Wells,GB,52.2416,-3.3787,47.28,97,100,18.61,overcast clouds
635,Mishan,CN,45.55,131.8833,2.86,87,17,9.95,few clouds
636,Nanzhang,CN,31.7765,111.8386,39.16,80,70,1.9,broken clouds
637,Mutoko,ZW,-17.397,32.2268,67.44,65,85,8.68,overcast clouds
638,Bata,GQ,1.8639,9.7658,85.86,84,40,6.91,scattered clouds
639,Pagudpud,PH,18.5616,120.7868,74.32,84,100,7.87,overcast clouds
640,Mao,ES,39.8885,4.2658,54.16,66,0,4.61,clear sky
641,Velikiy Ustyug,RU,60.7644,46.3106,22.33,94,100,7.09,snow
642,Muros,ES,42.7762,-9.0603,56.23,83,26,5.26,scattered clouds
643,Chimbote,PE,-9.0853,-78.5783,76.41,68,99,10.07,overcast clouds
644,Kargasok,RU,59.0556,80.8572,-6.38,99,66,8.72,broken clouds
645,Inverness,GB,57.4791,-4.224,46.38,83,20,19.57,few clouds
646,Kysyl-Syr,RU,63.8986,122.7617,-20.61,100,100,2.35,overcast clouds
647,Erenhot,CN,43.6475,111.9767,0.41,89,80,6.38,broken clouds
648,Jodhpur,IN,26.2867,73.03,64.63,23,0,1.32,clear sky
649,Pokhara,NP,28.2333,83.9833,51.42,64,1,3.69,clear sky
650,Malkara,TR,40.89,26.9011,44.6,83,98,14.94,overcast clouds
651,Isangel,VU,-19.55,169.2667,79.21,89,86,4.12,overcast clouds
652,Songjianghe,CN,42.1859,127.479,8.83,97,100,1.03,overcast clouds
653,Judenburg,AT,47.1667,14.6667,36.32,52,20,6.91,few clouds
654,Sedam,IN,17.1773,77.2824,74.79,33,43,6.82,scattered clouds
655,Gamba,GA,-2.65,10.0,80.38,80,60,9.69,broken clouds
656,Kalmar,SE,56.6616,16.3616,36.14,80,100,11.5,overcast clouds
657,Samarai,PG,-10.6167,150.6667,80.31,68,88,9.13,overcast clouds
658,Formosa,AR,-26.1775,-58.1781,84.18,100,100,16.11,overcast clouds
659,Krasnaya Poyma,RU,55.0014,39.08,18.46,90,20,9.44,few clouds
660,Batagay,RU,67.6333,134.6333,-32.53,97,83,3.02,broken clouds
661,Beringovskiy,RU,63.05,179.3167,-25.89,95,23,7.56,few clouds
662,Tual,ID,-5.6667,132.75,82.6,72,12,3.71,few clouds
663,Joutseno,FI,61.118,28.5076,28.45,92,98,11.59,overcast clouds
664,Huittinen,FI,61.1833,22.7,31.59,86,97,9.15,overcast clouds
665,Ilo,PE,-17.6394,-71.3375,72.46,64,0,16.11,clear sky
666,Shatsk,RU,54.0258,41.7119,22.57,94,70,12.44,broken clouds
667,Rybnaya Sloboda,RU,55.4613,50.1409,28.38,97,98,7.81,light snow
668,Kurilsk,RU,45.2333,147.8833,27.84,92,100,1.57,light snow
669,Mount Isa,AU,-20.7333,139.5,74.97,94,43,1.14,scattered clouds
670,Itaueira,BR,-7.6033,-43.0256,86.56,59,45,5.55,light rain
671,Lengshuijiang,CN,27.6881,111.4294,39.49,94,97,2.06,overcast clouds
672,Serebryanyy Bor,RU,56.8,124.8,-38.76,100,100,0.81,overcast clouds
673,Rocha,UY,-34.4833,-54.3333,67.6,95,100,11.36,overcast clouds
674,Aklavik,CA,68.2191,-135.0107,-19.48,68,75,2.3,broken clouds
675,Lakatoro,VU,-16.0999,167.4164,79.47,84,100,1.5,overcast clouds
676,Mount Pleasant,US,32.7941,-79.8626,69.98,49,0,5.75,clear sky
677,Ozinki,RU,51.1786,49.6769,17.8,97,98,5.23,overcast clouds
678,Yushu,CN,44.8,126.5333,-3.96,98,60,3.83,broken clouds
679,Russell,US,32.3502,-85.1999,68.38,63,0,4.61,clear sky
